[
  {
    "id": 1,
    "name": "Third Mainland bridge",
    "imageUrl": "https://raw.githubusercontent.com/fumdiali/monumarks-boilerplate/master/Images/mainland_bridge_lagos.jpeg",
    "lat": 6.5025,
    "lng": 3.4025
  },
  {
    "id": 2,
    "name": "Tafawa Balewa square",
    "imageUrl": "https://raw.githubusercontent.com/fumdiali/monumarks-boilerplate/master/Images/tbs_lagos.jpeg",
    "lat": 6.4454,
    "lng": 3.4016
  },
  {
    "id": 3,
    "name": "Tinubu square",
    "imageUrl": "https://raw.githubusercontent.com/fumdiali/monumarks-boilerplate/master/Images/tinubu_square.jpeg",
    "lat": 6.4537,
    "lng": 3.3900
  },
  {
    "id": 4,
    "name": "Freedom park",
    "imageUrl": "https://raw.githubusercontent.com/fumdiali/monumarks-boilerplate/master/Images/freedompark.jpeg",
    "lat": 6.4489,
    "lng": 3.3965
  },
  {
    "id": 5,
    "name": "Lekki conservation centre",
    "imageUrl": "https://raw.githubusercontent.com/fumdiali/monumarks-boilerplate/master/Images/lekki_conservation.jpeg",
    "lat": 6.4416,
    "lng": 3.5358
  },
  {
    "id": 6,
    "name": "National Arts Theatre",
    "imageUrl": "https://raw.githubusercontent.com/fumdiali/monumarks-boilerplate/master/Images/arts_theatre_lagos.jpeg",
    "lat": 6.4764,
    "lng": 3.3694
  }
]
