[
  {
    "id": 1,
    "name": "Third Mainland bridge",
    "imageUrl": "https://raw.githubusercontent.com/lewagon/flats-boilerplate/master/images/loc1.jpg",
    "lat": 48.884211,
    "lng": 2.346890
  },
  {
    "id": 2,
    "name": "Tafawa Balewa square",
    "imageUrl": "https://raw.githubusercontent.com/lewagon/flats-boilerplate/master/images/loc2.jpg",
    "lat": 48.885707,
    "lng": 2.343543
  },
  {
    "id": 3,
    "name": "Tinubu square",
    "imageUrl": "https://raw.githubusercontent.com/lewagon/flats-boilerplate/master/images/loc3.jpg",
    "lat": 48.885312,
    "lng": 2.341225
  },
  {
    "id": 4,
    "name": "Freedom park",
    "imageUrl": "https://raw.githubusercontent.com/lewagon/flats-boilerplate/master/images/loc4.jpg",
    "lat": 48.881840,
    "lng": 2.343371
  },
  {
    "id": 5,
    "name": "National Museum",
    "imageUrl": "https://raw.githubusercontent.com/lewagon/flats-boilerplate/master/images/loc5.jpg",
    "lat": 48.888839,
    "lng": 2.339208
  },
  {
    "id": 6,
    "name": "National Arts Theatre",
    "imageUrl": "https://raw.githubusercontent.com/lewagon/flats-boilerplate/master/images/loc6.jpg",
    "lat": 48.827855,
    "lng": 2.350774
  }
]
